{"nhits": 26560, "parameters": {"dataset": ["positions-geographiques-des-stations-du-reseau-ratp"], "timezone": "UTC", "rows": 10, "format": "json", "facet": ["stop_name", "code_postal", "departement"]}, "records": [{"datasetid": "positions-geographiques-des-stations-du-reseau-ratp", "recordid": "ada99bcc8dbf82c1a6ffff293f408070b366190e", "fields": {"departement": "78", "stop_lat": 48.970077176304514, "code_postal": "78005", "stop_lon": 2.0776181820083806, "coord": [48.970077176304514, 2.0776181820083806], "stop_id": 2158, "stop_desc": "Avenue de Conflans - 78005", "stop_name": "Ach\u00e8res-Ville"}, "geometry": {"type": "Point", "coordinates": [2.0776181820083806, 48.970077176304514]}, "record_timestamp": "2016-08-05T08:05:25+00:00"}, {"datasetid": "positions-geographiques-des-stations-du-reseau-ratp", "recordid": "d31bd81dc11702ce67a441c6607cc259b73181aa", "fields": {"departement": "75", "stop_lat": 48.82806601968645, "code_postal": "75114", "stop_lon": 2.326827420050836, "coord": [48.82806601968645, 2.326827420050836], "stop_id": 2159, "stop_desc": "Place Victor et H\u00e9l\u00e8ne Basch - 75114", "stop_name": "Al\u00e9sia"}, "geometry": {"type": "Point", "coordinates": [2.326827420050836, 48.82806601968645]}, "record_timestamp": "2016-08-05T08:05:25+00:00"}, {"datasetid": "positions-geographiques-des-stations-du-reseau-ratp", "recordid": "9921b72ade1cb1e7e8645e9a65bca817f1ded10e", "fields": {"departement": "75", "stop_lat": 48.8654893908901, "code_postal": "75108", "stop_lon": 2.321411789213801, "coord": [48.8654893908901, 2.321411789213801], "stop_id": 2172, "stop_desc": "Tuileries (jardin des, face au 246 rue de Rivoli et \u00c8 la rue Cambon) PARIS-08 - 75108", "stop_name": "Concorde"}, "geometry": {"type": "Point", "coordinates": [2.321411789213801, 48.8654893908901]}, "record_timestamp": "2016-08-05T08:05:25+00:00"}, {"datasetid": "positions-geographiques-des-stations-du-reseau-ratp", "recordid": "9d69cc79a01332aa5111ceaa1ed7e0e93f7ed6f8", "fields": {"departement": "75", "stop_lat": 48.83713694956265, "code_postal": "75115", "stop_lon": 2.296396090155559, "coord": [48.83713694956265, 2.296396090155559], "stop_id": 2174, "stop_desc": "Vaugirard (337 rue de) - 75115", "stop_name": "Convention"}, "geometry": {"type": "Point", "coordinates": [2.296396090155559, 48.83713694956265]}, "record_timestamp": "2016-08-05T08:05:25+00:00"}, {"datasetid": "positions-geographiques-des-stations-du-reseau-ratp", "recordid": "0081c1830ce9a372751e1f30f44fc31630b1da6d", "fields": {"departement": "91", "stop_lat": 48.70076301806364, "code_postal": "91272", "stop_lon": 2.099100527058702, "coord": [48.70076301806364, 2.099100527058702], "stop_id": 2178, "stop_desc": "Rue Fernand Leger - 91272", "stop_name": "Courcelle-sur-Yvette"}, "geometry": {"type": "Point", "coordinates": [2.099100527058702, 48.70076301806364]}, "record_timestamp": "2016-08-05T08:05:25+00:00"}, {"datasetid": "positions-geographiques-des-stations-du-reseau-raftp", "recordid": "052f17de8b165794c24a76ba668a0d29cf84790d", "fields": {"departement": "75", "stop_lat": 48.833315185891436, "code_postal": "75114", "stop_lon": 2.3334427638299853, "coord": [48.833315185891436, 2.3334427638299853], "stop_id": 2187, "stop_desc": "G\u00e9n\u00e9ral Leclerc (4 avenue du, 2 rue Daguerre) - 75114", "stop_name": "Denfert-Rochereau"}, "geometry": {"type": "Point", "coordinates": [2.3334427638299853, 48.833315185891436]}, "record_timestamp": "2016-08-05T08:05:25+00:00"}, {"datasetid": "positions-geographiques-des-stations-du-reseau-ratp", "recordid": "477c9063e1fac6cd0a421f10b88bca3d8992ae67", "fields": {"departement": "93", "stop_lat": 48.932709809148555, "code_postal": "93029", "stop_lon": 2.455105345174671, "coord": [48.932709809148555, 2.455105345174671], "stop_id": 2188, "stop_desc": "Anatole France (169, rue) - 93029", "stop_name": "Drancy"}, "geometry": {"type": "Point", "coordinates": [2.455105345174671, 48.932709809148555]}, "record_timestamp": "2016-08-05T08:05:25+00:00"}, {"datasetid": "positions-geographiques-des-stations-du-reseau-ratp", "recordid": "f2b978fc7e1fcc2b1c9e9de659bee821bd61ffce", "fields": {"departement": "94", "stop_lat": 48.8434118592224, "code_postal": "94033", "stop_lon": 2.464815403274336, "coord": [48.8434118592224, 2.464815403274336], "stop_id": 2198, "stop_desc": "Moreau David (place) - 94033", "stop_name": "Fontenay-sous-Bois"}, "geometry": {"type": "Point", "coordinates": [2.464815403274336, 48.8434118592224]}, "record_timestamp": "2016-08-05T08:05:25+00:00"}, {"datasetid": "positions-geographiques-des-stations-du-reseau-ratp", "recordid": "f4c4aeb2fccadd53b82aef1501b63be651cab0f4", "fields": {"departement": "75", "stop_lat": 48.84555978708341, "code_postal": "75112", "stop_lon": 2.37344920496318, "coord": [48.84555978708341, 2.37344920496318], "stop_id": 2210, "stop_desc": "Rue de Bercy - 75112", "stop_name": "Gare de Lyon"}, "geometry": {"type": "Point", "coordinates": [2.37344920496318, 48.84555978708341]}, "record_timestamp": "2016-08-05T08:05:25+00:00"}, {"datasetid": "positions-geographiques-des-stations-du-reseau-ratp", "recordid": "c8a9868020eec923ef107eea3d574b8a964ec58a", "fields": {"departement": "75", "stop_lat": 48.87974306422535, "code_postal": "75110", "stop_lon": 2.3546008104722334, "coord": [48.87974306422535, 2.3546008104722334], "stop_id": 2212, "stop_desc": "Rue du Faubourg St Denis - 75110", "stop_name": "Gare du Nord"}, "geometry": {"type": "Point", "coordinates": [2.3546008104722334, 48.87974306422535]}, "record_timestamp": "2016-08-05T08:05:25+00:00"}], "facet_groups": [{"name": "stop_name", "facets": [{"name": "VICTOR HUGO", "path": "VICTOR HUGO", "count": 85, "state": "displayed"}, {"name": "GABRIEL PERI", "path": "GABRIEL PERI", "count": 80, "state": "displayed"}, {"name": "GENERAL DE GAULLE", "path": "GENERAL DE GAULLE", "count": 76, "state": "displayed"}, {"name": "VERDUN", "path": "VERDUN", "count": 65, "state": "displayed"}, {"name": "GAMBETTA", "path": "GAMBETTA", "count": 60, "state": "displayed"}, {"name": "CHATELET", "path": "CHATELET", "count": 53, "state": "displayed"}, {"name": "GARE SAINT-LAZARE", "path": "GARE SAINT-LAZARE", "count": 52, "state": "displayed"}, {"name": "8 MAI 1945", "path": "8 MAI 1945", "count": 51, "state": "displayed"}, {"name": "REPUBLIQUE", "path": "REPUBLIQUE", "count": 50, "state": "displayed"}, {"name": "GARE DE L'EST", "path": "GARE DE L'EST", "count": 49, "state": "displayed"}, {"name": "JEAN JAURES", "path": "JEAN JAURES", "count": 47, "state": "displayed"}, {"name": "VOLTAIRE", "path": "VOLTAIRE", "count": 47, "state": "displayed"}, {"name": "EMILE ZOLA", "path": "EMILE ZOLA", "count": 45, "state": "displayed"}, {"name": "JEAN MERMOZ", "path": "JEAN MERMOZ", "count": 45, "state": "displayed"}, {"name": "CARNOT", "path": "CARNOT", "count": 44, "state": "displayed"}, {"name": "PASTEUR", "path": "PASTEUR", "count": 44, "state": "displayed"}, {"name": "PAUL BERT", "path": "PAUL BERT", "count": 44, "state": "displayed"}, {"name": "COLONEL FABIEN", "path": "COLONEL FABIEN", "count": 42, "state": "displayed"}, {"name": "RABELAIS", "path": "RABELAIS", "count": 40, "state": "displayed"}, {"name": "EUROPE", "path": "EUROPE", "count": 39, "state": "displayed"}, {"name": "LAMARTINE", "path": "LAMARTINE", "count": 39, "state": "displayed"}, {"name": "LEON BLUM", "path": "LEON BLUM", "count": 39, "state": "displayed"}, {"name": "DANIELLE CASANOVA", "path": "DANIELLE CASANOVA", "count": 38, "state": "displayed"}, {"name": "GARE MONTPARNASSE", "path": "GARE MONTPARNASSE", "count": 37, "state": "displayed"}, {"name": "LA DEFENSE-METRO-RER-TRAMWAY", "path": "LA DEFENSE-METRO-RER-TRAMWAY", "count": 37, "state": "displayed"}, {"name": "BOBIGNY - PABLO PICASSO", "path": "BOBIGNY - PABLO PICASSO", "count": 36, "state": "displayed"}, {"name": "FELIX FAURE", "path": "FELIX FAURE", "count": 35, "state": "displayed"}, {"name": "LIBERTE", "path": "LIBERTE", "count": 35, "state": "displayed"}, {"name": "PARC DE SAINT-CLOUD", "path": "PARC DE SAINT-CLOUD", "count": 34, "state": "displayed"}, {"name": "CHATEAU DE VINCENNES", "path": "CHATEAU DE VINCENNES", "count": 33, "state": "displayed"}, {"name": "HENRI BARBUSSE", "path": "HENRI BARBUSSE", "count": 33, "state": "displayed"}, {"name": "LA FONTAINE", "path": "LA FONTAINE", "count": 33, "state": "displayed"}, {"name": "MAISON DE RETRAITE", "path": "MAISON DE RETRAITE", "count": 33, "state": "displayed"}, {"name": "ETIENNE DOLET", "path": "ETIENNE DOLET", "count": 32, "state": "displayed"}, {"name": "STALINGRAD", "path": "STALINGRAD", "count": 32, "state": "displayed"}, {"name": "JEAN MOULIN", "path": "JEAN MOULIN", "count": 31, "state": "displayed"}, {"name": "GARE DU NORD", "path": "GARE DU NORD", "count": 30, "state": "displayed"}, {"name": "JULES FERRY", "path": "JULES FERRY", "count": 30, "state": "displayed"}, {"name": "PIERRE CURIE", "path": "PIERRE CURIE", "count": 30, "state": "displayed"}, {"name": "RUE DU PORT", "path": "RUE DU PORT", "count": 30, "state": "displayed"}, {"name": "HOTEL DE VILLE", "path": "HOTEL DE VILLE", "count": 29, "state": "displayed"}, {"name": "BRETAGNE", "path": "BRETAGNE", "count": 28, "state": "displayed"}, {"name": "EDOUARD VAILLANT", "path": "EDOUARD VAILLANT", "count": 28, "state": "displayed"}, {"name": "JEANNE D'ARC", "path": "JEANNE D'ARC", "count": 28, "state": "displayed"}, {"name": "OPERA", "path": "OPERA", "count": 28, "state": "displayed"}, {"name": "PLACE DE LA LIBERATION", "path": "PLACE DE LA LIBERATION", "count": 28, "state": "displayed"}, {"name": "PORTE D'ORLEANS", "path": "PORTE D'ORLEANS", "count": 28, "state": "displayed"}, {"name": "ROBINSON RER", "path": "ROBINSON RER", "count": 28, "state": "displayed"}, {"name": "ARISTIDE BRIAND", "path": "ARISTIDE BRIAND", "count": 27, "state": "displayed"}, {"name": "GALLIENI", "path": "GALLIENI", "count": 27, "state": "displayed"}, {"name": "PIERRE SEMARD", "path": "PIERRE SEMARD", "count": 27, "state": "displayed"}, {"name": "GARE DE LYON - DIDEROT", "path": "GARE DE LYON - DIDEROT", "count": 26, "state": "displayed"}, {"name": "GENERAL LECLERC", "path": "GENERAL LECLERC", "count": 26, "state": "displayed"}, {"name": "RUE DES PEUPLIERS", "path": "RUE DES PEUPLIERS", "count": 26, "state": "displayed"}, {"name": "PLACE DE LA RESISTANCE", "path": "PLACE DE LA RESISTANCE", "count": 25, "state": "displayed"}, {"name": "PLACE DU 19 MARS 1962", "path": "PLACE DU 19 MARS 1962", "count": 25, "state": "displayed"}, {"name": "SAINT-AUGUSTIN", "path": "SAINT-AUGUSTIN", "count": 25, "state": "displayed"}, {"name": "AVENUE DU CHATEAU", "path": "AVENUE DU CHATEAU", "count": 24, "state": "displayed"}, {"name": "CITE JARDINS", "path": "CITE JARDINS", "count": 24, "state": "displayed"}, {"name": "GABRIEL PERI-METRO", "path": "GABRIEL PERI-METRO", "count": 24, "state": "displayed"}, {"name": "VILLEJUIF - LOUIS ARAGON", "path": "VILLEJUIF - LOUIS ARAGON", "count": 24, "state": "displayed"}, {"name": "LA POSTE", "path": "LA POSTE", "count": 23, "state": "displayed"}, {"name": "LE PARC", "path": "LE PARC", "count": 23, "state": "displayed"}, {"name": "MAURICE THOREZ", "path": "MAURICE THOREZ", "count": 23, "state": "displayed"}, {"name": "MUSEE DE SEVRES", "path": "MUSEE DE SEVRES", "count": 23, "state": "displayed"}, {"name": "PONT DE NEUILLY-METRO", "path": "PONT DE NEUILLY-METRO", "count": 23, "state": "displayed"}, {"name": "PONT DE SEVRES-METRO", "path": "PONT DE SEVRES-METRO", "count": 23, "state": "displayed"}, {"name": "VIADUC", "path": "VIADUC", "count": 23, "state": "displayed"}, {"name": "VICTOR BASCH", "path": "VICTOR BASCH", "count": 23, "state": "displayed"}, {"name": "ALESIA - GENERAL LECLERC", "path": "ALESIA - GENERAL LECLERC", "count": 22, "state": "displayed"}, {"name": "AVENUE DE ROSNY", "path": "AVENUE DE ROSNY", "count": 22, "state": "displayed"}, {"name": "DANTON", "path": "DANTON", "count": 22, "state": "displayed"}, {"name": "ERNEST RENAN", "path": "ERNEST RENAN", "count": 22, "state": "displayed"}, {"name": "MARCHE INTERNATIONAL DE RUNGIS", "path": "MARCHE INTERNATIONAL DE RUNGIS", "count": 22, "state": "displayed"}, {"name": "AUGUSTE POLISSARD", "path": "AUGUSTE POLISSARD", "count": 21, "state": "displayed"}, {"name": "GEORGES POMPIDOU", "path": "GEORGES POMPIDOU", "count": 21, "state": "displayed"}, {"name": "HAVRE - HAUSSMANN", "path": "HAVRE - HAUSSMANN", "count": 21, "state": "displayed"}, {"name": "ILE DE FRANCE", "path": "ILE DE FRANCE", "count": 21, "state": "displayed"}, {"name": "LOUVRE - RIVOLI", "path": "LOUVRE - RIVOLI", "count": 21, "state": "displayed"}, {"name": "MAISON BLANCHE", "path": "MAISON BLANCHE", "count": 21, "state": "displayed"}, {"name": "MICHEL DEBRE", "path": "MICHEL DEBRE", "count": 21, "state": "displayed"}, {"name": "PORTE DE CLIGNANCOURT", "path": "PORTE DE CLIGNANCOURT", "count": 21, "state": "displayed"}, {"name": "BALZAC", "path": "BALZAC", "count": 20, "state": "displayed"}, {"name": "CONCORDE", "path": "CONCORDE", "count": 20, "state": "displayed"}, {"name": "LE KREMLIN-BICETRE-METRO", "path": "LE KREMLIN-BICETRE-METRO", "count": 20, "state": "displayed"}, {"name": "LES MARRONNIERS", "path": "LES MARRONNIERS", "count": 20, "state": "displayed"}, {"name": "LOUISE MICHEL", "path": "LOUISE MICHEL", "count": 20, "state": "displayed"}, {"name": "LUXEMBOURG", "path": "LUXEMBOURG", "count": 20, "state": "displayed"}, {"name": "NOISY-LE-GRAND - MONT D'EST RER", "path": "NOISY-LE-GRAND - MONT D'EST RER", "count": 20, "state": "displayed"}, {"name": "PONT NEUF - QUAI DU LOUVRE", "path": "PONT NEUF - QUAI DU LOUVRE", "count": 20, "state": "displayed"}, {"name": "CENTRE ADMINISTRATIF", "path": "CENTRE ADMINISTRATIF", "count": 19, "state": "displayed"}, {"name": "CENTRE BUS", "path": "CENTRE BUS", "count": 19, "state": "displayed"}, {"name": "CITE - PALAIS DE JUSTICE", "path": "CITE - PALAIS DE JUSTICE", "count": 19, "state": "displayed"}, {"name": "CONDORCET", "path": "CONDORCET", "count": 19, "state": "displayed"}, {"name": "CONVENTION - FONTAINEBLEAU", "path": "CONVENTION - FONTAINEBLEAU", "count": 19, "state": "displayed"}, {"name": "DIVISION LECLERC", "path": "DIVISION LECLERC", "count": 19, "state": "displayed"}, {"name": "GARIBALDI", "path": "GARIBALDI", "count": 19, "state": "displayed"}, {"name": "JEAN-BAPTISTE CLEMENT", "path": "JEAN-BAPTISTE CLEMENT", "count": 19, "state": "displayed"}, {"name": "MAIRIE D'ISSY-METRO", "path": "MAIRIE D'ISSY-METRO", "count": 19, "state": "displayed"}, {"name": "MAIRIE DE CHAMPIGNY", "path": "MAIRIE DE CHAMPIGNY", "count": 19, "state": "displayed"}]}, {"name": "code_postal", "facets": [{"name": "92050", "path": "92050", "count": 628, "state": "displayed"}, {"name": "75115", "path": "75115", "count": 504, "state": "displayed"}, {"name": "75108", "path": "75108", "count": 471, "state": "displayed"}, {"name": "92063", "path": "92063", "count": 471, "state": "displayed"}, {"name": "75112", "path": "75112", "count": 466, "state": "displayed"}, {"name": "75116", "path": "75116", "count": 455, "state": "displayed"}, {"name": "75118", "path": "75118", "count": 423, "state": "displayed"}, {"name": "93066", "path": "93066", "count": 418, "state": "displayed"}, {"name": "75113", "path": "75113", "count": 412, "state": "displayed"}, {"name": "75114", "path": "75114", "count": 399, "state": "displayed"}, {"name": "75117", "path": "75117", "count": 394, "state": "displayed"}, {"name": "93008", "path": "93008", "count": 390, "state": "displayed"}, {"name": "94017", "path": "94017", "count": 365, "state": "displayed"}, {"name": "94068", "path": "94068", "count": 347, "state": "displayed"}, {"name": "92036", "path": "92036", "count": 341, "state": "displayed"}, {"name": "94033", "path": "94033", "count": 341, "state": "displayed"}, {"name": "75110", "path": "75110", "count": 326, "state": "displayed"}, {"name": "92062", "path": "92062", "count": 316, "state": "displayed"}, {"name": "92048", "path": "92048", "count": 315, "state": "displayed"}, {"name": "75120", "path": "75120", "count": 314, "state": "displayed"}, {"name": "93010", "path": "93010", "count": 307, "state": "displayed"}, {"name": "94028", "path": "94028", "count": 293, "state": "displayed"}, {"name": "75106", "path": "75106", "count": 285, "state": "displayed"}, {"name": "92040", "path": "92040", "count": 283, "state": "displayed"}, {"name": "75109", "path": "75109", "count": 280, "state": "displayed"}, {"name": "75107", "path": "75107", "count": 278, "state": "displayed"}, {"name": "92023", "path": "92023", "count": 278, "state": "displayed"}, {"name": "92025", "path": "92025", "count": 271, "state": "displayed"}, {"name": "91377", "path": "91377", "count": 265, "state": "displayed"}, {"name": "95585", "path": "95585", "count": 258, "state": "displayed"}, {"name": "92012", "path": "92012", "count": 256, "state": "displayed"}, {"name": "75119", "path": "75119", "count": 252, "state": "displayed"}, {"name": "92073", "path": "92073", "count": 252, "state": "displayed"}, {"name": "94081", "path": "94081", "count": 251, "state": "displayed"}, {"name": "75105", "path": "75105", "count": 250, "state": "displayed"}, {"name": "93048", "path": "93048", "count": 250, "state": "displayed"}, {"name": "94046", "path": "94046", "count": 244, "state": "displayed"}, {"name": "93007", "path": "93007", "count": 240, "state": "displayed"}, {"name": "93001", "path": "93001", "count": 235, "state": "displayed"}, {"name": "91027", "path": "91027", "count": 228, "state": "displayed"}, {"name": "92020", "path": "92020", "count": 222, "state": "displayed"}, {"name": "94076", "path": "94076", "count": 222, "state": "displayed"}, {"name": "75101", "path": "75101", "count": 219, "state": "displayed"}, {"name": "75104", "path": "75104", "count": 219, "state": "displayed"}, {"name": "92002", "path": "92002", "count": 218, "state": "displayed"}, {"name": "93055", "path": "93055", "count": 218, "state": "displayed"}, {"name": "93051", "path": "93051", "count": 216, "state": "displayed"}, {"name": "93029", "path": "93029", "count": 215, "state": "displayed"}, {"name": "92004", "path": "92004", "count": 213, "state": "displayed"}, {"name": "94038", "path": "94038", "count": 211, "state": "displayed"}, {"name": "93050", "path": "93050", "count": 209, "state": "displayed"}, {"name": "92024", "path": "92024", "count": 204, "state": "displayed"}, {"name": "77083", "path": "77083", "count": 201, "state": "displayed"}, {"name": "75111", "path": "75111", "count": 199, "state": "displayed"}, {"name": "92051", "path": "92051", "count": 194, "state": "displayed"}, {"name": "93064", "path": "93064", "count": 184, "state": "displayed"}, {"name": "92019", "path": "92019", "count": 180, "state": "displayed"}, {"name": "94021", "path": "94021", "count": 180, "state": "displayed"}, {"name": "94041", "path": "94041", "count": 177, "state": "displayed"}, {"name": "92032", "path": "92032", "count": 176, "state": "displayed"}, {"name": "93070", "path": "93070", "count": 176, "state": "displayed"}, {"name": "92026", "path": "92026", "count": 172, "state": "displayed"}, {"name": "94022", "path": "94022", "count": 171, "state": "displayed"}, {"name": "93031", "path": "93031", "count": 166, "state": "displayed"}, {"name": "94058", "path": "94058", "count": 166, "state": "displayed"}, {"name": "94073", "path": "94073", "count": 166, "state": "displayed"}, {"name": "94003", "path": "94003", "count": 165, "state": "displayed"}, {"name": "95018", "path": "95018", "count": 162, "state": "displayed"}, {"name": "77468", "path": "77468", "count": 161, "state": "displayed"}, {"name": "92007", "path": "92007", "count": 152, "state": "displayed"}, {"name": "93027", "path": "93027", "count": 151, "state": "displayed"}, {"name": "94034", "path": "94034", "count": 149, "state": "displayed"}, {"name": "95268", "path": "95268", "count": 149, "state": "displayed"}, {"name": "92060", "path": "92060", "count": 147, "state": "displayed"}, {"name": "93077", "path": "93077", "count": 146, "state": "displayed"}, {"name": "93053", "path": "93053", "count": 143, "state": "displayed"}, {"name": "94069", "path": "94069", "count": 143, "state": "displayed"}, {"name": "91589", "path": "91589", "count": 140, "state": "displayed"}, {"name": "93073", "path": "93073", "count": 135, "state": "displayed"}, {"name": "94043", "path": "94043", "count": 134, "state": "displayed"}, {"name": "92046", "path": "92046", "count": 132, "state": "displayed"}, {"name": "92064", "path": "92064", "count": 128, "state": "displayed"}, {"name": "94015", "path": "94015", "count": 127, "state": "displayed"}, {"name": "94002", "path": "94002", "count": 124, "state": "displayed"}, {"name": "93006", "path": "93006", "count": 122, "state": "displayed"}, {"name": "94016", "path": "94016", "count": 122, "state": "displayed"}, {"name": "92049", "path": "92049", "count": 121, "state": "displayed"}, {"name": "94018", "path": "94018", "count": 121, "state": "displayed"}, {"name": "92072", "path": "92072", "count": 119, "state": "displayed"}, {"name": "93072", "path": "93072", "count": 119, "state": "displayed"}, {"name": "92044", "path": "92044", "count": 115, "state": "displayed"}, {"name": "94052", "path": "94052", "count": 114, "state": "displayed"}, {"name": "93046", "path": "93046", "count": 111, "state": "displayed"}, {"name": "93049", "path": "93049", "count": 108, "state": "displayed"}, {"name": "75102", "path": "75102", "count": 106, "state": "displayed"}, {"name": "94079", "path": "94079", "count": 103, "state": "displayed"}, {"name": "91161", "path": "91161", "count": 101, "state": "displayed"}, {"name": "92078", "path": "92078", "count": 99, "state": "displayed"}, {"name": "91326", "path": "91326", "count": 98, "state": "displayed"}, {"name": "77337", "path": "77337", "count": 96, "state": "displayed"}]}, {"name": "departement", "facets": [{"name": "92", "path": "92", "count": 6485, "state": "displayed"}, {"name": "75", "path": "75", "count": 6345, "state": "displayed"}, {"name": "93", "path": "93", "count": 5147, "state": "displayed"}, {"name": "94", "path": "94", "count": 5137, "state": "displayed"}, {"name": "91", "path": "91", "count": 1270, "state": "displayed"}, {"name": "95", "path": "95", "count": 1097, "state": "displayed"}, {"name": "77", "path": "77", "count": 767, "state": "displayed"}, {"name": "78", "path": "78", "count": 312, "state": "displayed"}]}]}